[
    {
        "id": "587eda5a000bef03174daaad",
        "location": {
            "address": "2528B Durant Avenue",
            "cc": "US",
            "city": "Berkeley",
            "country": "United States",
            "distance": 225,
            "formattedAddress": [
                "2528B Durant Avenue",
                "Berkeley, CA 94704",
                "United States"
            ],
            "labeledLatLngs": [
                {
                    "label": "display",
                    "lat": 37.86793860776664,
                    "lng": -122.25766217872926
                }
            ],
            "lat": 37.86793860776664,
            "lng": -122.25766217872926,
            "postalCode": "94704",
            "state": "CA"
        },
        "name": "Taco Bell Cantina"
    },
    {
        "id": "5d334f852262cb0008e6be18",
        "location": {
            "address": "19 N Market St",
            "cc": "US",
            "city": "San Jose",
            "country": "United States",
            "crossStreet": "W Santa Clara St",
            "distance": 67200,
            "formattedAddress": [
                "19 N Market St (W Santa Clara St)",
                "San Jose, CA 95113",
                "United States"
            ],
            "labeledLatLngs": [
                {
                    "label": "display",
                    "lat": 37.335726,
                    "lng": -121.89275
                }
            ],
            "lat": 37.335726,
            "lng": -121.89275,
            "postalCode": "95113",
            "state": "CA"
        },
        "name": "Taco Bell Cantina"
    },
    {
        "id": "4ada8cf0f964a520702321e3",
        "location": {
            "address": "4081 Hollis St",
            "cc": "US",
            "city": "Emeryville",
            "country": "United States",
            "crossStreet": "Park Ave.",
            "distance": 4659,
            "formattedAddress": [
                "4081 Hollis St (Park Ave.)",
                "Emeryville, CA 94608",
                "United States"
            ],
            "labeledLatLngs": [
                {
                    "label": "display",
                    "lat": 37.83096708337846,
                    "lng": -122.28591862590551
                }
            ],
            "lat": 37.83096708337846,
            "lng": -122.28591862590551,
            "postalCode": "94608",
            "state": "CA"
        },
        "name": "Rudy's Can't Fail Cafe"
    },
    {
        "id": "548688c1498e0381ba54df69",
        "location": {
            "cc": "US",
            "city": "San Francisco",
            "country": "United States",
            "distance": 15947,
            "formattedAddress": [
                "San Francisco, CA",
                "United States"
            ],
            "labeledLatLngs": [
                {
                    "label": "display",
                    "lat": 37.77185205384739,
                    "lng": -122.39358687072804
                }
            ],
            "lat": 37.77185205384739,
            "lng": -122.39358687072804,
            "state": "CA"
        },
        "name": "Studio be"
    },
    {
        "id": "4afe5ed5f964a520442f22e3",
        "location": {
            "address": "1031 Monroe St",
            "cc": "US",
            "city": "Santa Clara",
            "country": "United States",
            "crossStreet": "btwn Benton & Homestead",
            "distance": 63673,
            "formattedAddress": [
                "1031 Monroe St (btwn Benton & Homestead)",
                "Santa Clara, CA 95050",
                "United States"
            ],
            "labeledLatLngs": [
                {
                    "label": "display",
                    "lat": 37.3489816700439,
                    "lng": -121.94803941133262
                }
            ],
            "lat": 37.3489816700439,
            "lng": -121.94803941133262,
            "postalCode": "95050",
            "state": "CA"
        },
        "name": "Blinky's Can't Say"
    },
    {
        "id": "560461b3498e93e852864f6b",
        "location": {
            "address": "710 3rd St",
            "cc": "US",
            "city": "San Francisco",
            "country": "United States",
            "crossStreet": "at Townsend St",
            "distance": 15413,
            "formattedAddress": [
                "710 3rd St (at Townsend St)",
                "San Francisco, CA 94107",
                "United States"
            ],
            "labeledLatLngs": [
                {
                    "label": "display",
                    "lat": 37.77853362589888,
                    "lng": -122.39278078079222
                }
            ],
            "lat": 37.77853362589888,
            "lng": -122.39278078079222,
            "postalCode": "94107",
            "state": "CA"
        },
        "name": "Taco Bell Cantina"
    },
    {
        "id": "43e879cbf964a5200f2f1fe3",
        "location": {
            "address": "2288 Mission St",
            "cc": "US",
            "city": "San Francisco",
            "country": "United States",
            "crossStreet": "at 19th St",
            "distance": 18492,
            "formattedAddress": [
                "2288 Mission St (at 19th St)",
                "San Francisco, CA 94110",
                "United States"
            ],
            "labeledLatLngs": [
                {
                    "label": "display",
                    "lat": 37.76041434416447,
                    "lng": -122.41924383532758
                }
            ],
            "lat": 37.76041434416447,
            "lng": -122.41924383532758,
            "postalCode": "94110",
            "state": "CA"
        },
        "name": "Taqueria Canc\u00fan"
    }
]